[
{"ID":"1419","STATE_CODE":"AZ","STATE_NAME":"Arizona","CITY":"Aguila","COUNTY":"Maricopa","LATITUDE":"33.942778","LONGITUDE":"-113.173333"},
{"ID":"1420","STATE_CODE":"AZ","STATE_NAME":"Arizona","CITY":"Ajo","COUNTY":"Pima","LATITUDE":"32.373485","LONGITUDE":"-112.858681"},
{"ID":"1421","STATE_CODE":"AZ","STATE_NAME":"Arizona","CITY":"Alpine","COUNTY":"Apache","LATITUDE":"33.827878","LONGITUDE":"-109.12829"},
{"ID":"1422","STATE_CODE":"AZ","STATE_NAME":"Arizona","CITY":"Amado","COUNTY":"Santa Cruz","LATITUDE":"31.643759","LONGITUDE":"-111.072233"},
{"ID":"1423","STATE_CODE":"AZ","STATE_NAME":"Arizona","CITY":"Apache Junction","COUNTY":"Pinal","LATITUDE":"33.3277","LONGITUDE":"-111.3259"},
{"ID":"1424","STATE_CODE":"AZ","STATE_NAME":"Arizona","CITY":"Arivaca","COUNTY":"Pima","LATITUDE":"31.574722","LONGITUDE":"-111.331667"},
{"ID":"1425","STATE_CODE":"AZ","STATE_NAME":"Arizona","CITY":"Arizona City","COUNTY":"Pinal","LATITUDE":"32.755833","LONGITUDE":"-111.670278"},
{"ID":"1426","STATE_CODE":"AZ","STATE_NAME":"Arizona","CITY":"Arlington","COUNTY":"Maricopa","LATITUDE":"33.313317","LONGITUDE":"-112.789058"},
{"ID":"1427","STATE_CODE":"AZ","STATE_NAME":"Arizona","CITY":"Ash Fork","COUNTY":"Yavapai","LATITUDE":"35.214998","LONGITUDE":"-112.502681"},
{"ID":"1428","STATE_CODE":"AZ","STATE_NAME":"Arizona","CITY":"Avondale","COUNTY":"Maricopa","LATITUDE":"33.432114","LONGITUDE":"-112.343754"},
{"ID":"1429","STATE_CODE":"AZ","STATE_NAME":"Arizona","CITY":"Bagdad","COUNTY":"Yavapai","LATITUDE":"34.578484","LONGITUDE":"-113.175535"},
{"ID":"1430","STATE_CODE":"AZ","STATE_NAME":"Arizona","CITY":"Bapchule","COUNTY":"Pinal","LATITUDE":"33.136389","LONGITUDE":"-111.8725"},
{"ID":"1431","STATE_CODE":"AZ","STATE_NAME":"Arizona","CITY":"Bellemont","COUNTY":"Coconino","LATITUDE":"35.238056","LONGITUDE":"-111.832778"},
{"ID":"1432","STATE_CODE":"AZ","STATE_NAME":"Arizona","CITY":"Benson","COUNTY":"Cochise","LATITUDE":"31.98826","LONGITUDE":"-110.294113"},
{"ID":"1433","STATE_CODE":"AZ","STATE_NAME":"Arizona","CITY":"Bisbee","COUNTY":"Cochise","LATITUDE":"31.408557","LONGITUDE":"-109.911736"},
{"ID":"1434","STATE_CODE":"AZ","STATE_NAME":"Arizona","CITY":"Black Canyon City","COUNTY":"Yavapai","LATITUDE":"34.073197","LONGITUDE":"-112.130956"},
{"ID":"1435","STATE_CODE":"AZ","STATE_NAME":"Arizona","CITY":"Blue","COUNTY":"Greenlee","LATITUDE":"33.651245","LONGITUDE":"-109.06849"},
{"ID":"1436","STATE_CODE":"AZ","STATE_NAME":"Arizona","CITY":"Blue Gap","COUNTY":"Navajo","LATITUDE":"36.100833","LONGITUDE":"-110.225278"},
{"ID":"1437","STATE_CODE":"AZ","STATE_NAME":"Arizona","CITY":"Bouse","COUNTY":"La Paz","LATITUDE":"33.9325","LONGITUDE":"-114.005"},
{"ID":"1438","STATE_CODE":"AZ","STATE_NAME":"Arizona","CITY":"Bowie","COUNTY":"Cochise","LATITUDE":"32.326389","LONGITUDE":"-109.486389"},
{"ID":"1439","STATE_CODE":"AZ","STATE_NAME":"Arizona","CITY":"Buckeye","COUNTY":"Maricopa","LATITUDE":"33.38896","LONGITUDE":"-112.607728"},
{"ID":"1440","STATE_CODE":"AZ","STATE_NAME":"Arizona","CITY":"Bullhead City","COUNTY":"Mohave","LATITUDE":"35.1678","LONGITUDE":"-114.543"},
{"ID":"1441","STATE_CODE":"AZ","STATE_NAME":"Arizona","CITY":"Bylas","COUNTY":"Graham","LATITUDE":"33.126549","LONGITUDE":"-110.11702"},
{"ID":"1442","STATE_CODE":"AZ","STATE_NAME":"Arizona","CITY":"Cameron","COUNTY":"Coconino","LATITUDE":"35.7163","LONGITUDE":"-111.4088"},
{"ID":"1443","STATE_CODE":"AZ","STATE_NAME":"Arizona","CITY":"Camp Verde","COUNTY":"Yavapai","LATITUDE":"34.569733","LONGITUDE":"-111.855131"},
{"ID":"1444","STATE_CODE":"AZ","STATE_NAME":"Arizona","CITY":"Carefree","COUNTY":"Maricopa","LATITUDE":"33.822222","LONGITUDE":"-111.9175"},
{"ID":"1445","STATE_CODE":"AZ","STATE_NAME":"Arizona","CITY":"Casa Grande","COUNTY":"Pinal","LATITUDE":"32.892667","LONGITUDE":"-111.756093"},
{"ID":"1446","STATE_CODE":"AZ","STATE_NAME":"Arizona","CITY":"Cashion","COUNTY":"Maricopa","LATITUDE":"33.435278","LONGITUDE":"-112.297222"},
{"ID":"1447","STATE_CODE":"AZ","STATE_NAME":"Arizona","CITY":"Catalina","COUNTY":"Pima","LATITUDE":"32.497222","LONGITUDE":"-110.923611"},
{"ID":"1448","STATE_CODE":"AZ","STATE_NAME":"Arizona","CITY":"Cave Creek","COUNTY":"Maricopa","LATITUDE":"33.833333","LONGITUDE":"-111.95"},
{"ID":"1449","STATE_CODE":"AZ","STATE_NAME":"Arizona","CITY":"Central","COUNTY":"Graham","LATITUDE":"32.8675","LONGITUDE":"-109.792222"},
{"ID":"1450","STATE_CODE":"AZ","STATE_NAME":"Arizona","CITY":"Chambers","COUNTY":"Apache","LATITUDE":"35.143044","LONGITUDE":"-109.37389"},
{"ID":"1451","STATE_CODE":"AZ","STATE_NAME":"Arizona","CITY":"Chandler","COUNTY":"Maricopa","LATITUDE":"33.330091","LONGITUDE":"-111.863156"},
{"ID":"1452","STATE_CODE":"AZ","STATE_NAME":"Arizona","CITY":"Chandler Heights","COUNTY":"Maricopa","LATITUDE":"33.211944","LONGITUDE":"-111.685556"},
{"ID":"1453","STATE_CODE":"AZ","STATE_NAME":"Arizona","CITY":"Chinle","COUNTY":"Apache","LATITUDE":"36.130367","LONGITUDE":"-109.603693"},
{"ID":"1454","STATE_CODE":"AZ","STATE_NAME":"Arizona","CITY":"Chino Valley","COUNTY":"Yavapai","LATITUDE":"34.775739","LONGITUDE":"-112.473099"},
{"ID":"1455","STATE_CODE":"AZ","STATE_NAME":"Arizona","CITY":"Chloride","COUNTY":"Mohave","LATITUDE":"35.414444","LONGITUDE":"-114.198611"},
{"ID":"1456","STATE_CODE":"AZ","STATE_NAME":"Arizona","CITY":"Cibecue","COUNTY":"Navajo","LATITUDE":"34.044722","LONGITUDE":"-110.484722"},
{"ID":"1457","STATE_CODE":"AZ","STATE_NAME":"Arizona","CITY":"Cibola","COUNTY":"La Paz","LATITUDE":"33.614886","LONGITUDE":"-114.512204"},
{"ID":"1458","STATE_CODE":"AZ","STATE_NAME":"Arizona","CITY":"Clarkdale","COUNTY":"Yavapai","LATITUDE":"34.747793","LONGITUDE":"-112.033417"},
{"ID":"1459","STATE_CODE":"AZ","STATE_NAME":"Arizona","CITY":"Clay Springs","COUNTY":"Navajo","LATITUDE":"34.361667","LONGITUDE":"-110.294722"},
{"ID":"1460","STATE_CODE":"AZ","STATE_NAME":"Arizona","CITY":"Claypool","COUNTY":"Gila","LATITUDE":"33.411111","LONGITUDE":"-110.841944"},
{"ID":"1461","STATE_CODE":"AZ","STATE_NAME":"Arizona","CITY":"Clifton","COUNTY":"Greenlee","LATITUDE":"33.132343","LONGITUDE":"-109.246199"},
{"ID":"1462","STATE_CODE":"AZ","STATE_NAME":"Arizona","CITY":"Cochise","COUNTY":"Cochise","LATITUDE":"32.097891","LONGITUDE":"-109.92393"},
{"ID":"1463","STATE_CODE":"AZ","STATE_NAME":"Arizona","CITY":"Colorado City","COUNTY":"Mohave","LATITUDE":"36.976266","LONGITUDE":"-112.952427"},
{"ID":"1464","STATE_CODE":"AZ","STATE_NAME":"Arizona","CITY":"Concho","COUNTY":"Apache","LATITUDE":"34.445787","LONGITUDE":"-109.674096"},
{"ID":"1465","STATE_CODE":"AZ","STATE_NAME":"Arizona","CITY":"Congress","COUNTY":"Yavapai","LATITUDE":"34.176425","LONGITUDE":"-112.76801"},
{"ID":"1466","STATE_CODE":"AZ","STATE_NAME":"Arizona","CITY":"Coolidge","COUNTY":"Pinal","LATITUDE":"32.957399","LONGITUDE":"-111.534378"},
{"ID":"1467","STATE_CODE":"AZ","STATE_NAME":"Arizona","CITY":"Cornville","COUNTY":"Yavapai","LATITUDE":"34.725593","LONGITUDE":"-111.908556"},
{"ID":"1468","STATE_CODE":"AZ","STATE_NAME":"Arizona","CITY":"Cortaro","COUNTY":"Pima","LATITUDE":"32.356111","LONGITUDE":"-111.087778"},
{"ID":"1469","STATE_CODE":"AZ","STATE_NAME":"Arizona","CITY":"Cottonwood","COUNTY":"Yavapai","LATITUDE":"34.705547","LONGITUDE":"-112.009099"},
{"ID":"1470","STATE_CODE":"AZ","STATE_NAME":"Arizona","CITY":"Crown King","COUNTY":"Yavapai","LATITUDE":"34.224062","LONGITUDE":"-112.333971"},
{"ID":"1471","STATE_CODE":"AZ","STATE_NAME":"Arizona","CITY":"Dateland","COUNTY":"Yuma","LATITUDE":"32.867886","LONGITUDE":"-113.463126"},
{"ID":"1472","STATE_CODE":"AZ","STATE_NAME":"Arizona","CITY":"Dennehotso","COUNTY":"Apache","LATITUDE":"36.777286","LONGITUDE":"-109.861001"},
{"ID":"1473","STATE_CODE":"AZ","STATE_NAME":"Arizona","CITY":"Dewey","COUNTY":"Yavapai","LATITUDE":"34.536753","LONGITUDE":"-112.256665"},
{"ID":"1474","STATE_CODE":"AZ","STATE_NAME":"Arizona","CITY":"Dolan Springs","COUNTY":"Mohave","LATITUDE":"35.774789","LONGITUDE":"-114.547771"},
{"ID":"1475","STATE_CODE":"AZ","STATE_NAME":"Arizona","CITY":"Douglas","COUNTY":"Cochise","LATITUDE":"31.35111","LONGITUDE":"-109.544698"},
{"ID":"1476","STATE_CODE":"AZ","STATE_NAME":"Arizona","CITY":"Dragoon","COUNTY":"Cochise","LATITUDE":"32.028056","LONGITUDE":"-110.038056"},
{"ID":"1477","STATE_CODE":"AZ","STATE_NAME":"Arizona","CITY":"Duncan","COUNTY":"Greenlee","LATITUDE":"32.793976","LONGITUDE":"-109.129575"},
{"ID":"1478","STATE_CODE":"AZ","STATE_NAME":"Arizona","CITY":"Eagar","COUNTY":"Apache","LATITUDE":"33.954571","LONGITUDE":"-109.246933"},
{"ID":"1479","STATE_CODE":"AZ","STATE_NAME":"Arizona","CITY":"Eden","COUNTY":"Graham","LATITUDE":"33.028629","LONGITUDE":"-109.953682"},
{"ID":"1480","STATE_CODE":"AZ","STATE_NAME":"Arizona","CITY":"Ehrenberg","COUNTY":"La Paz","LATITUDE":"33.604167","LONGITUDE":"-114.524444"},
{"ID":"1481","STATE_CODE":"AZ","STATE_NAME":"Arizona","CITY":"El Mirage","COUNTY":"Maricopa","LATITUDE":"33.608153","LONGITUDE":"-112.324147"},
{"ID":"1482","STATE_CODE":"AZ","STATE_NAME":"Arizona","CITY":"Elfrida","COUNTY":"Cochise","LATITUDE":"31.713891","LONGITUDE":"-109.619277"},
{"ID":"1483","STATE_CODE":"AZ","STATE_NAME":"Arizona","CITY":"Elgin","COUNTY":"Santa Cruz","LATITUDE":"31.66002","LONGITUDE":"-110.611403"},
{"ID":"1484","STATE_CODE":"AZ","STATE_NAME":"Arizona","CITY":"Eloy","COUNTY":"Pinal","LATITUDE":"32.750929","LONGITUDE":"-111.583275"},
{"ID":"1485","STATE_CODE":"AZ","STATE_NAME":"Arizona","CITY":"Flagstaff","COUNTY":"Coconino","LATITUDE":"35.185911","LONGITUDE":"-111.661979"},
{"ID":"1486","STATE_CODE":"AZ","STATE_NAME":"Arizona","CITY":"Florence","COUNTY":"Pinal","LATITUDE":"32.996881","LONGITUDE":"-111.361234"},
{"ID":"1487","STATE_CODE":"AZ","STATE_NAME":"Arizona","CITY":"Forest Lakes","COUNTY":"Coconino","LATITUDE":"34.431389","LONGITUDE":"-110.593333"},
{"ID":"1488","STATE_CODE":"AZ","STATE_NAME":"Arizona","CITY":"Fort Apache","COUNTY":"Navajo","LATITUDE":"33.790556","LONGITUDE":"-109.988056"},
{"ID":"1489","STATE_CODE":"AZ","STATE_NAME":"Arizona","CITY":"Fort Defiance","COUNTY":"Apache","LATITUDE":"35.744444","LONGITUDE":"-109.075833"},
{"ID":"1490","STATE_CODE":"AZ","STATE_NAME":"Arizona","CITY":"Fort Huachuca","COUNTY":"Cochise","LATITUDE":"31.558735","LONGITUDE":"-110.344131"},
{"ID":"1491","STATE_CODE":"AZ","STATE_NAME":"Arizona","CITY":"Fort Mcdowell","COUNTY":"Maricopa","LATITUDE":"33.611807","LONGITUDE":"-111.68062"},
{"ID":"1492","STATE_CODE":"AZ","STATE_NAME":"Arizona","CITY":"Fort Mohave","COUNTY":"Mohave","LATITUDE":"35.0112","LONGITUDE":"-114.5849"},
{"ID":"1493","STATE_CODE":"AZ","STATE_NAME":"Arizona","CITY":"Fort Thomas","COUNTY":"Graham","LATITUDE":"33.036944","LONGITUDE":"-109.964722"},
{"ID":"1494","STATE_CODE":"AZ","STATE_NAME":"Arizona","CITY":"Fountain Hills","COUNTY":"Maricopa","LATITUDE":"33.608489","LONGITUDE":"-111.723685"},
{"ID":"1495","STATE_CODE":"AZ","STATE_NAME":"Arizona","CITY":"Fredonia","COUNTY":"Coconino","LATITUDE":"36.904397","LONGITUDE":"-112.497864"},
{"ID":"1496","STATE_CODE":"AZ","STATE_NAME":"Arizona","CITY":"Gadsden","COUNTY":"Yuma","LATITUDE":"32.554444","LONGITUDE":"-114.784167"},
{"ID":"1497","STATE_CODE":"AZ","STATE_NAME":"Arizona","CITY":"Ganado","COUNTY":"Apache","LATITUDE":"35.651844","LONGITUDE":"-109.283168"},
{"ID":"1498","STATE_CODE":"AZ","STATE_NAME":"Arizona","CITY":"Gila Bend","COUNTY":"Maricopa","LATITUDE":"32.93059","LONGITUDE":"-112.746832"},
{"ID":"1499","STATE_CODE":"AZ","STATE_NAME":"Arizona","CITY":"Gilbert","COUNTY":"Maricopa","LATITUDE":"33.35","LONGITUDE":"-111.8092"},
{"ID":"1500","STATE_CODE":"AZ","STATE_NAME":"Arizona","CITY":"Glendale","COUNTY":"Maricopa","LATITUDE":"33.531122","LONGITUDE":"-112.176703"},
{"ID":"1501","STATE_CODE":"AZ","STATE_NAME":"Arizona","CITY":"Glendale Luke Afb","COUNTY":"Maricopa","LATITUDE":"33.539993","LONGITUDE":"-112.356186"},
{"ID":"1502","STATE_CODE":"AZ","STATE_NAME":"Arizona","CITY":"Globe","COUNTY":"Gila","LATITUDE":"33.402426","LONGITUDE":"-110.789247"},
{"ID":"1503","STATE_CODE":"AZ","STATE_NAME":"Arizona","CITY":"Golden Valley","COUNTY":"Mohave","LATITUDE":"35.2102","LONGITUDE":"-114.2764"},
{"ID":"1504","STATE_CODE":"AZ","STATE_NAME":"Arizona","CITY":"Goodyear","COUNTY":"Maricopa","LATITUDE":"33.436809","LONGITUDE":"-112.383385"},
{"ID":"1505","STATE_CODE":"AZ","STATE_NAME":"Arizona","CITY":"Grand Canyon","COUNTY":"Coconino","LATITUDE":"36.054444","LONGITUDE":"-112.138611"},
{"ID":"1506","STATE_CODE":"AZ","STATE_NAME":"Arizona","CITY":"Gray Mountain","COUNTY":"Coconino","LATITUDE":"35.6679","LONGITUDE":"-111.484"},
{"ID":"1507","STATE_CODE":"AZ","STATE_NAME":"Arizona","CITY":"Green Valley","COUNTY":"Pima","LATITUDE":"31.854271","LONGITUDE":"-111.000253"},
{"ID":"1508","STATE_CODE":"AZ","STATE_NAME":"Arizona","CITY":"Greer","COUNTY":"Apache","LATITUDE":"34.01","LONGITUDE":"-109.458056"},
{"ID":"1509","STATE_CODE":"AZ","STATE_NAME":"Arizona","CITY":"Hackberry","COUNTY":"Mohave","LATITUDE":"35.369167","LONGITUDE":"-113.726389"},
{"ID":"1510","STATE_CODE":"AZ","STATE_NAME":"Arizona","CITY":"Happy Jack","COUNTY":"Coconino","LATITUDE":"34.743333","LONGITUDE":"-111.406667"},
{"ID":"1511","STATE_CODE":"AZ","STATE_NAME":"Arizona","CITY":"Hayden","COUNTY":"Gila","LATITUDE":"33.004722","LONGITUDE":"-110.784722"},
{"ID":"1512","STATE_CODE":"AZ","STATE_NAME":"Arizona","CITY":"Heber","COUNTY":"Navajo","LATITUDE":"34.4163","LONGITUDE":"-110.568647"},
{"ID":"1513","STATE_CODE":"AZ","STATE_NAME":"Arizona","CITY":"Hereford","COUNTY":"Cochise","LATITUDE":"31.403545","LONGITUDE":"-110.204728"},
{"ID":"1514","STATE_CODE":"AZ","STATE_NAME":"Arizona","CITY":"Higley","COUNTY":"Maricopa","LATITUDE":"33.302382","LONGITUDE":"-111.696926"},
{"ID":"1515","STATE_CODE":"AZ","STATE_NAME":"Arizona","CITY":"Holbrook","COUNTY":"Navajo","LATITUDE":"34.908451","LONGITUDE":"-110.143412"},
{"ID":"1516","STATE_CODE":"AZ","STATE_NAME":"Arizona","CITY":"Hotevilla","COUNTY":"Navajo","LATITUDE":"36.211141","LONGITUDE":"-110.566107"},
{"ID":"1517","STATE_CODE":"AZ","STATE_NAME":"Arizona","CITY":"Houck","COUNTY":"Apache","LATITUDE":"35.283","LONGITUDE":"-109.2063"},
{"ID":"1518","STATE_CODE":"AZ","STATE_NAME":"Arizona","CITY":"Huachuca City","COUNTY":"Cochise","LATITUDE":"31.663896","LONGITUDE":"-110.333414"},
{"ID":"1519","STATE_CODE":"AZ","STATE_NAME":"Arizona","CITY":"Hualapai","COUNTY":"Mohave","LATITUDE":"35.540732","LONGITUDE":"-113.295324"},
{"ID":"1520","STATE_CODE":"AZ","STATE_NAME":"Arizona","CITY":"Humboldt","COUNTY":"Yavapai","LATITUDE":"34.500833","LONGITUDE":"-112.236667"},
{"ID":"1521","STATE_CODE":"AZ","STATE_NAME":"Arizona","CITY":"Indian Wells","COUNTY":"Navajo","LATITUDE":"35.405556","LONGITUDE":"-110.084167"},
{"ID":"1522","STATE_CODE":"AZ","STATE_NAME":"Arizona","CITY":"Iron Springs","COUNTY":"Yavapai","LATITUDE":"34.673","LONGITUDE":"-112.5211"},
{"ID":"1523","STATE_CODE":"AZ","STATE_NAME":"Arizona","CITY":"Jerome","COUNTY":"Yavapai","LATITUDE":"34.748889","LONGITUDE":"-112.113056"},
{"ID":"1524","STATE_CODE":"AZ","STATE_NAME":"Arizona","CITY":"Joseph City","COUNTY":"Navajo","LATITUDE":"34.955833","LONGITUDE":"-110.333333"},
{"ID":"1525","STATE_CODE":"AZ","STATE_NAME":"Arizona","CITY":"Kaibeto","COUNTY":"Coconino","LATITUDE":"36.484798","LONGITUDE":"-111.136973"},
{"ID":"1526","STATE_CODE":"AZ","STATE_NAME":"Arizona","CITY":"Kayenta","COUNTY":"Navajo","LATITUDE":"36.688327","LONGITUDE":"-110.265229"},
{"ID":"1527","STATE_CODE":"AZ","STATE_NAME":"Arizona","CITY":"Keams Canyon","COUNTY":"Navajo","LATITUDE":"35.808206","LONGITUDE":"-110.284461"},
{"ID":"1528","STATE_CODE":"AZ","STATE_NAME":"Arizona","CITY":"Kearny","COUNTY":"Pinal","LATITUDE":"33.059443","LONGITUDE":"-110.91227"},
{"ID":"1529","STATE_CODE":"AZ","STATE_NAME":"Arizona","CITY":"Kingman","COUNTY":"Mohave","LATITUDE":"35.258379","LONGITUDE":"-114.05689"},
{"ID":"1530","STATE_CODE":"AZ","STATE_NAME":"Arizona","CITY":"Kirkland","COUNTY":"Yavapai","LATITUDE":"34.454149","LONGITUDE":"-112.896641"},
{"ID":"1531","STATE_CODE":"AZ","STATE_NAME":"Arizona","CITY":"Kykotsmovi Village","COUNTY":"Navajo","LATITUDE":"35.579084","LONGITUDE":"-110.368805"},
{"ID":"1532","STATE_CODE":"AZ","STATE_NAME":"Arizona","CITY":"Lake Havasu City","COUNTY":"Mohave","LATITUDE":"34.492879","LONGITUDE":"-114.308083"},
{"ID":"1533","STATE_CODE":"AZ","STATE_NAME":"Arizona","CITY":"Lake Montezuma","COUNTY":"Yavapai","LATITUDE":"34.632222","LONGITUDE":"-111.777222"},
{"ID":"1534","STATE_CODE":"AZ","STATE_NAME":"Arizona","CITY":"Lakeside","COUNTY":"Navajo","LATITUDE":"34.166224","LONGITUDE":"-109.986878"},
{"ID":"1535","STATE_CODE":"AZ","STATE_NAME":"Arizona","CITY":"Laveen","COUNTY":"Maricopa","LATITUDE":"33.343572","LONGITUDE":"-112.171618"},
{"ID":"1536","STATE_CODE":"AZ","STATE_NAME":"Arizona","CITY":"Leupp","COUNTY":"Coconino","LATITUDE":"35.336528","LONGITUDE":"-110.992651"},
{"ID":"1537","STATE_CODE":"AZ","STATE_NAME":"Arizona","CITY":"Litchfield Park","COUNTY":"Maricopa","LATITUDE":"33.494127","LONGITUDE":"-112.380497"},
{"ID":"1538","STATE_CODE":"AZ","STATE_NAME":"Arizona","CITY":"Littlefield","COUNTY":"Mohave","LATITUDE":"36.866524","LONGITUDE":"-113.913693"},
{"ID":"1539","STATE_CODE":"AZ","STATE_NAME":"Arizona","CITY":"Lukachukai","COUNTY":"Apache","LATITUDE":"36.418111","LONGITUDE":"-109.244614"},
{"ID":"1540","STATE_CODE":"AZ","STATE_NAME":"Arizona","CITY":"Lukeville","COUNTY":"Pima","LATITUDE":"31.8825","LONGITUDE":"-112.815"},
{"ID":"1541","STATE_CODE":"AZ","STATE_NAME":"Arizona","CITY":"Lupton","COUNTY":"Apache","LATITUDE":"35.4086","LONGITUDE":"-109.07"},
{"ID":"1542","STATE_CODE":"AZ","STATE_NAME":"Arizona","CITY":"Mammoth","COUNTY":"Pinal","LATITUDE":"32.723875","LONGITUDE":"-110.643961"},
{"ID":"1543","STATE_CODE":"AZ","STATE_NAME":"Arizona","CITY":"Many Farms","COUNTY":"Apache","LATITUDE":"36.408259","LONGITUDE":"-109.634021"},
{"ID":"1544","STATE_CODE":"AZ","STATE_NAME":"Arizona","CITY":"Marana","COUNTY":"Pima","LATITUDE":"32.404749","LONGITUDE":"-111.273621"},
{"ID":"1545","STATE_CODE":"AZ","STATE_NAME":"Arizona","CITY":"Marble Canyon","COUNTY":"Coconino","LATITUDE":"36.956943","LONGITUDE":"-111.558166"},
{"ID":"1546","STATE_CODE":"AZ","STATE_NAME":"Arizona","CITY":"Maricopa","COUNTY":"Pinal","LATITUDE":"32.987379","LONGITUDE":"-112.075228"},
{"ID":"1547","STATE_CODE":"AZ","STATE_NAME":"Arizona","CITY":"Mayer","COUNTY":"Yavapai","LATITUDE":"34.365535","LONGITUDE":"-112.129551"},
{"ID":"1548","STATE_CODE":"AZ","STATE_NAME":"Arizona","CITY":"Mc Neal","COUNTY":"Cochise","LATITUDE":"31.502969","LONGITUDE":"-109.630971"},
{"ID":"1549","STATE_CODE":"AZ","STATE_NAME":"Arizona","CITY":"Mcnary","COUNTY":"Apache","LATITUDE":"34.073611","LONGITUDE":"-109.856389"},
{"ID":"1550","STATE_CODE":"AZ","STATE_NAME":"Arizona","CITY":"Meadview","COUNTY":"Mohave","LATITUDE":"35.813733","LONGITUDE":"-114.327696"},
{"ID":"1551","STATE_CODE":"AZ","STATE_NAME":"Arizona","CITY":"Mesa","COUNTY":"Maricopa","LATITUDE":"33.43174","LONGITUDE":"-111.846931"},
{"ID":"1552","STATE_CODE":"AZ","STATE_NAME":"Arizona","CITY":"Miami","COUNTY":"Gila","LATITUDE":"33.431928","LONGITUDE":"-110.881182"},
{"ID":"1553","STATE_CODE":"AZ","STATE_NAME":"Arizona","CITY":"Mohave Valley","COUNTY":"Mohave","LATITUDE":"34.892942","LONGITUDE":"-114.595115"},
{"ID":"1554","STATE_CODE":"AZ","STATE_NAME":"Arizona","CITY":"Morenci","COUNTY":"Greenlee","LATITUDE":"33.043593","LONGITUDE":"-109.311517"},
{"ID":"1555","STATE_CODE":"AZ","STATE_NAME":"Arizona","CITY":"Mormon Lake","COUNTY":"Coconino","LATITUDE":"34.916896","LONGITUDE":"-111.454914"},
{"ID":"1556","STATE_CODE":"AZ","STATE_NAME":"Arizona","CITY":"Morristown","COUNTY":"Maricopa","LATITUDE":"33.772993","LONGITUDE":"-112.548331"},
{"ID":"1557","STATE_CODE":"AZ","STATE_NAME":"Arizona","CITY":"Mount Lemmon","COUNTY":"Pima","LATITUDE":"32.438056","LONGITUDE":"-110.734167"},
{"ID":"1558","STATE_CODE":"AZ","STATE_NAME":"Arizona","CITY":"Munds Park","COUNTY":"Coconino","LATITUDE":"34.945556","LONGITUDE":"-111.639444"},
{"ID":"1559","STATE_CODE":"AZ","STATE_NAME":"Arizona","CITY":"Naco","COUNTY":"Cochise","LATITUDE":"31.335278","LONGITUDE":"-109.9475"},
{"ID":"1560","STATE_CODE":"AZ","STATE_NAME":"Arizona","CITY":"Nazlini","COUNTY":"Apache","LATITUDE":"35.711389","LONGITUDE":"-109.541389"},
{"ID":"1561","STATE_CODE":"AZ","STATE_NAME":"Arizona","CITY":"New River","COUNTY":"Maricopa","LATITUDE":"33.9059","LONGITUDE":"-112.1345"},
{"ID":"1562","STATE_CODE":"AZ","STATE_NAME":"Arizona","CITY":"Nogales","COUNTY":"Santa Cruz","LATITUDE":"31.376969","LONGITUDE":"-110.943508"},
{"ID":"1563","STATE_CODE":"AZ","STATE_NAME":"Arizona","CITY":"North Rim","COUNTY":"Coconino","LATITUDE":"36.945556","LONGITUDE":"-112.525833"},
{"ID":"1564","STATE_CODE":"AZ","STATE_NAME":"Arizona","CITY":"Nutrioso","COUNTY":"Apache","LATITUDE":"33.953056","LONGITUDE":"-109.208611"},
{"ID":"1565","STATE_CODE":"AZ","STATE_NAME":"Arizona","CITY":"Oatman","COUNTY":"Mohave","LATITUDE":"35.026389","LONGITUDE":"-114.382778"},
{"ID":"1566","STATE_CODE":"AZ","STATE_NAME":"Arizona","CITY":"Oracle","COUNTY":"Pinal","LATITUDE":"32.600506","LONGITUDE":"-110.796126"},
{"ID":"1567","STATE_CODE":"AZ","STATE_NAME":"Arizona","CITY":"Overgaard","COUNTY":"Navajo","LATITUDE":"34.390833","LONGITUDE":"-110.5525"},
{"ID":"1568","STATE_CODE":"AZ","STATE_NAME":"Arizona","CITY":"Page","COUNTY":"Coconino","LATITUDE":"36.896625","LONGITUDE":"-111.43847"},
{"ID":"1569","STATE_CODE":"AZ","STATE_NAME":"Arizona","CITY":"Palo Verde","COUNTY":"Maricopa","LATITUDE":"33.34848","LONGITUDE":"-112.646662"},
{"ID":"1570","STATE_CODE":"AZ","STATE_NAME":"Arizona","CITY":"Paradise Valley","COUNTY":"Maricopa","LATITUDE":"33.549439","LONGITUDE":"-111.956546"},
{"ID":"1571","STATE_CODE":"AZ","STATE_NAME":"Arizona","CITY":"Parker","COUNTY":"La Paz","LATITUDE":"34.0254","LONGITUDE":"-114.266342"},
{"ID":"1572","STATE_CODE":"AZ","STATE_NAME":"Arizona","CITY":"Parks","COUNTY":"Coconino","LATITUDE":"35.1898","LONGITUDE":"-112.0187"},
{"ID":"1573","STATE_CODE":"AZ","STATE_NAME":"Arizona","CITY":"Patagonia","COUNTY":"Santa Cruz","LATITUDE":"31.535317","LONGITUDE":"-110.696774"},
{"ID":"1574","STATE_CODE":"AZ","STATE_NAME":"Arizona","CITY":"Paulden","COUNTY":"Yavapai","LATITUDE":"35.03129","LONGITUDE":"-112.544105"},
{"ID":"1575","STATE_CODE":"AZ","STATE_NAME":"Arizona","CITY":"Payson","COUNTY":"Gila","LATITUDE":"34.219779","LONGITUDE":"-111.287774"},
{"ID":"1576","STATE_CODE":"AZ","STATE_NAME":"Arizona","CITY":"Peach Springs","COUNTY":"Mohave","LATITUDE":"35.537795","LONGITUDE":"-113.420199"},
{"ID":"1577","STATE_CODE":"AZ","STATE_NAME":"Arizona","CITY":"Pearce","COUNTY":"Cochise","LATITUDE":"31.966608","LONGITUDE":"-109.795032"},
{"ID":"1578","STATE_CODE":"AZ","STATE_NAME":"Arizona","CITY":"Peoria","COUNTY":"Maricopa","LATITUDE":"33.576135","LONGITUDE":"-112.234424"},
{"ID":"1579","STATE_CODE":"AZ","STATE_NAME":"Arizona","CITY":"Peridot","COUNTY":"Gila","LATITUDE":"33.478874","LONGITUDE":"-110.37252"},
{"ID":"1580","STATE_CODE":"AZ","STATE_NAME":"Arizona","CITY":"Petrified Forest Natl Pk","COUNTY":"Apache","LATITUDE":"34.773889","LONGITUDE":"-109.887778"},
{"ID":"1581","STATE_CODE":"AZ","STATE_NAME":"Arizona","CITY":"Phoenix","COUNTY":"Maricopa","LATITUDE":"33.451","LONGITUDE":"-112.0685"},
{"ID":"1582","STATE_CODE":"AZ","STATE_NAME":"Arizona","CITY":"Picacho","COUNTY":"Pinal","LATITUDE":"32.716111","LONGITUDE":"-111.494722"},
{"ID":"1583","STATE_CODE":"AZ","STATE_NAME":"Arizona","CITY":"Pima","COUNTY":"Graham","LATITUDE":"32.909661","LONGITUDE":"-109.856009"},
{"ID":"1584","STATE_CODE":"AZ","STATE_NAME":"Arizona","CITY":"Pine","COUNTY":"Gila","LATITUDE":"34.390915","LONGITUDE":"-111.473483"},
{"ID":"1585","STATE_CODE":"AZ","STATE_NAME":"Arizona","CITY":"Pinedale","COUNTY":"Navajo","LATITUDE":"34.3075","LONGITUDE":"-110.250833"},
{"ID":"1586","STATE_CODE":"AZ","STATE_NAME":"Arizona","CITY":"Pinetop","COUNTY":"Navajo","LATITUDE":"34.117459","LONGITUDE":"-109.919668"},
{"ID":"1587","STATE_CODE":"AZ","STATE_NAME":"Arizona","CITY":"Pinon","COUNTY":"Navajo","LATITUDE":"36.100243","LONGITUDE":"-110.221077"},
{"ID":"1588","STATE_CODE":"AZ","STATE_NAME":"Arizona","CITY":"Pirtleville","COUNTY":"Cochise","LATITUDE":"31.356944","LONGITUDE":"-109.561111"},
{"ID":"1589","STATE_CODE":"AZ","STATE_NAME":"Arizona","CITY":"Polacca","COUNTY":"Navajo","LATITUDE":"35.811812","LONGITUDE":"-110.51114"},
{"ID":"1590","STATE_CODE":"AZ","STATE_NAME":"Arizona","CITY":"Pomerene","COUNTY":"Cochise","LATITUDE":"31.999444","LONGITUDE":"-110.285556"},
{"ID":"1591","STATE_CODE":"AZ","STATE_NAME":"Arizona","CITY":"Poston","COUNTY":"La Paz","LATITUDE":"33.990556","LONGITUDE":"-114.395556"},
{"ID":"1592","STATE_CODE":"AZ","STATE_NAME":"Arizona","CITY":"Prescott","COUNTY":"Yavapai","LATITUDE":"34.629909","LONGITUDE":"-113.022459"},
{"ID":"1593","STATE_CODE":"AZ","STATE_NAME":"Arizona","CITY":"Prescott Valley","COUNTY":"Yavapai","LATITUDE":"34.61","LONGITUDE":"-112.315"},
{"ID":"1594","STATE_CODE":"AZ","STATE_NAME":"Arizona","CITY":"Quartzsite","COUNTY":"La Paz","LATITUDE":"33.5675","LONGITUDE":"-114.2731"},
{"ID":"1596","STATE_CODE":"AZ","STATE_NAME":"Arizona","CITY":"Queen Creek","COUNTY":"Pinal","LATITUDE":"33.151087","LONGITUDE":"-111.511058"},
{"ID":"1595","STATE_CODE":"AZ","STATE_NAME":"Arizona","CITY":"Queen Creek","COUNTY":"Maricopa","LATITUDE":"33.238577","LONGITUDE":"-111.643596"},
{"ID":"1597","STATE_CODE":"AZ","STATE_NAME":"Arizona","CITY":"Red Rock","COUNTY":"Pinal","LATITUDE":"32.576111","LONGITUDE":"-111.325"},
{"ID":"1598","STATE_CODE":"AZ","STATE_NAME":"Arizona","CITY":"Red Valley","COUNTY":"Apache","LATITUDE":"35.915556","LONGITUDE":"-109.029167"},
{"ID":"1599","STATE_CODE":"AZ","STATE_NAME":"Arizona","CITY":"Rillito","COUNTY":"Pima","LATITUDE":"32.414722","LONGITUDE":"-111.155556"},
{"ID":"1600","STATE_CODE":"AZ","STATE_NAME":"Arizona","CITY":"Rimrock","COUNTY":"Yavapai","LATITUDE":"34.63799","LONGITUDE":"-111.784222"},
{"ID":"1601","STATE_CODE":"AZ","STATE_NAME":"Arizona","CITY":"Rio Rico","COUNTY":"Santa Cruz","LATITUDE":"31.4851","LONGITUDE":"-110.9898"},
{"ID":"1602","STATE_CODE":"AZ","STATE_NAME":"Arizona","CITY":"Rio Verde","COUNTY":"Maricopa","LATITUDE":"33.7316","LONGITUDE":"-111.6811"},
{"ID":"1603","STATE_CODE":"AZ","STATE_NAME":"Arizona","CITY":"Rock Point","COUNTY":"Apache","LATITUDE":"36.718056","LONGITUDE":"-109.625278"},
{"ID":"1604","STATE_CODE":"AZ","STATE_NAME":"Arizona","CITY":"Roll","COUNTY":"Yuma","LATITUDE":"32.936635","LONGITUDE":"-113.564287"},
{"ID":"1605","STATE_CODE":"AZ","STATE_NAME":"Arizona","CITY":"Roosevelt","COUNTY":"Gila","LATITUDE":"33.635753","LONGITUDE":"-110.974884"},
{"ID":"1606","STATE_CODE":"AZ","STATE_NAME":"Arizona","CITY":"Round Rock","COUNTY":"Apache","LATITUDE":"36.502222","LONGITUDE":"-109.553056"},
{"ID":"1607","STATE_CODE":"AZ","STATE_NAME":"Arizona","CITY":"Sacaton","COUNTY":"Pinal","LATITUDE":"33.097699","LONGITUDE":"-111.775162"},
{"ID":"1608","STATE_CODE":"AZ","STATE_NAME":"Arizona","CITY":"Safford","COUNTY":"Graham","LATITUDE":"32.829491","LONGITUDE":"-109.626641"},
{"ID":"1609","STATE_CODE":"AZ","STATE_NAME":"Arizona","CITY":"Sahuarita","COUNTY":"Pima","LATITUDE":"31.945169","LONGITUDE":"-111.000154"},
{"ID":"1610","STATE_CODE":"AZ","STATE_NAME":"Arizona","CITY":"Saint David","COUNTY":"Cochise","LATITUDE":"31.897251","LONGITUDE":"-110.215377"},
{"ID":"1611","STATE_CODE":"AZ","STATE_NAME":"Arizona","CITY":"Saint Johns","COUNTY":"Apache","LATITUDE":"34.501008","LONGITUDE":"-109.379617"},
{"ID":"1612","STATE_CODE":"AZ","STATE_NAME":"Arizona","CITY":"Saint Michaels","COUNTY":"Apache","LATITUDE":"35.644722","LONGITUDE":"-109.095"},
{"ID":"1613","STATE_CODE":"AZ","STATE_NAME":"Arizona","CITY":"Salome","COUNTY":"La Paz","LATITUDE":"33.748141","LONGITUDE":"-113.571459"},
{"ID":"1614","STATE_CODE":"AZ","STATE_NAME":"Arizona","CITY":"San Carlos","COUNTY":"Gila","LATITUDE":"33.310643","LONGITUDE":"-110.395323"},
{"ID":"1615","STATE_CODE":"AZ","STATE_NAME":"Arizona","CITY":"San Luis","COUNTY":"Yuma","LATITUDE":"32.486944","LONGITUDE":"-114.781389"},
{"ID":"1616","STATE_CODE":"AZ","STATE_NAME":"Arizona","CITY":"San Manuel","COUNTY":"Pinal","LATITUDE":"32.695831","LONGITUDE":"-110.656788"},
{"ID":"1617","STATE_CODE":"AZ","STATE_NAME":"Arizona","CITY":"San Simon","COUNTY":"Cochise","LATITUDE":"32.208167","LONGITUDE":"-109.367152"},
{"ID":"1618","STATE_CODE":"AZ","STATE_NAME":"Arizona","CITY":"Sanders","COUNTY":"Apache","LATITUDE":"35.216389","LONGITUDE":"-109.333056"},
{"ID":"1619","STATE_CODE":"AZ","STATE_NAME":"Arizona","CITY":"Sasabe","COUNTY":"Pima","LATITUDE":"31.488611","LONGITUDE":"-111.541389"},
{"ID":"1620","STATE_CODE":"AZ","STATE_NAME":"Arizona","CITY":"Scottsdale","COUNTY":"Maricopa","LATITUDE":"33.521767","LONGITUDE":"-111.904926"},
{"ID":"1621","STATE_CODE":"AZ","STATE_NAME":"Arizona","CITY":"Second Mesa","COUNTY":"Navajo","LATITUDE":"35.903782","LONGITUDE":"-110.6472"},
{"ID":"1622","STATE_CODE":"AZ","STATE_NAME":"Arizona","CITY":"Sedona","COUNTY":"Coconino","LATITUDE":"34.8697","LONGITUDE":"-111.7602"},
{"ID":"1623","STATE_CODE":"AZ","STATE_NAME":"Arizona","CITY":"Sedona","COUNTY":"Yavapai","LATITUDE":"34.826645","LONGITUDE":"-111.750627"},
{"ID":"1624","STATE_CODE":"AZ","STATE_NAME":"Arizona","CITY":"Seligman","COUNTY":"Yavapai","LATITUDE":"35.321246","LONGITUDE":"-112.954805"},
{"ID":"1625","STATE_CODE":"AZ","STATE_NAME":"Arizona","CITY":"Sells","COUNTY":"Pima","LATITUDE":"32.031572","LONGITUDE":"-111.922207"},
{"ID":"1626","STATE_CODE":"AZ","STATE_NAME":"Arizona","CITY":"Shonto","COUNTY":"Navajo","LATITUDE":"36.61594","LONGITUDE":"-110.647743"},
{"ID":"1627","STATE_CODE":"AZ","STATE_NAME":"Arizona","CITY":"Show Low","COUNTY":"Navajo","LATITUDE":"34.060117","LONGITUDE":"-110.054633"},
{"ID":"1628","STATE_CODE":"AZ","STATE_NAME":"Arizona","CITY":"Sierra Vista","COUNTY":"Cochise","LATITUDE":"31.536467","LONGITUDE":"-110.266565"},
{"ID":"1629","STATE_CODE":"AZ","STATE_NAME":"Arizona","CITY":"Skull Valley","COUNTY":"Yavapai","LATITUDE":"34.505278","LONGITUDE":"-112.684722"},
{"ID":"1630","STATE_CODE":"AZ","STATE_NAME":"Arizona","CITY":"Snowflake","COUNTY":"Navajo","LATITUDE":"34.495859","LONGITUDE":"-110.080742"},
{"ID":"1631","STATE_CODE":"AZ","STATE_NAME":"Arizona","CITY":"Solomon","COUNTY":"Graham","LATITUDE":"32.8125","LONGITUDE":"-109.633333"},
{"ID":"1632","STATE_CODE":"AZ","STATE_NAME":"Arizona","CITY":"Somerton","COUNTY":"Yuma","LATITUDE":"32.563398","LONGITUDE":"-114.7127"},
{"ID":"1633","STATE_CODE":"AZ","STATE_NAME":"Arizona","CITY":"Sonoita","COUNTY":"Santa Cruz","LATITUDE":"31.866154","LONGITUDE":"-110.724418"},
{"ID":"1634","STATE_CODE":"AZ","STATE_NAME":"Arizona","CITY":"Springerville","COUNTY":"Apache","LATITUDE":"34.119333","LONGITUDE":"-109.304066"},
{"ID":"1635","STATE_CODE":"AZ","STATE_NAME":"Arizona","CITY":"Stanfield","COUNTY":"Pinal","LATITUDE":"32.882321","LONGITUDE":"-111.965987"},
{"ID":"1636","STATE_CODE":"AZ","STATE_NAME":"Arizona","CITY":"Sun City","COUNTY":"Maricopa","LATITUDE":"33.606104","LONGITUDE":"-112.279701"},
{"ID":"1637","STATE_CODE":"AZ","STATE_NAME":"Arizona","CITY":"Sun City West","COUNTY":"Maricopa","LATITUDE":"33.662576","LONGITUDE":"-112.255434"},
{"ID":"1638","STATE_CODE":"AZ","STATE_NAME":"Arizona","CITY":"Sun Valley","COUNTY":"Navajo","LATITUDE":"34.250833","LONGITUDE":"-111.254444"},
{"ID":"1639","STATE_CODE":"AZ","STATE_NAME":"Arizona","CITY":"Supai","COUNTY":"Coconino","LATITUDE":"36.224157","LONGITUDE":"-112.693212"},
{"ID":"1640","STATE_CODE":"AZ","STATE_NAME":"Arizona","CITY":"Superior","COUNTY":"Pinal","LATITUDE":"33.288716","LONGITUDE":"-111.09846"},
{"ID":"1641","STATE_CODE":"AZ","STATE_NAME":"Arizona","CITY":"Surprise","COUNTY":"Maricopa","LATITUDE":"33.630028","LONGITUDE":"-112.33143"},
{"ID":"1642","STATE_CODE":"AZ","STATE_NAME":"Arizona","CITY":"Tacna","COUNTY":"Yuma","LATITUDE":"32.6975","LONGITUDE":"-113.952778"},
{"ID":"1643","STATE_CODE":"AZ","STATE_NAME":"Arizona","CITY":"Taylor","COUNTY":"Navajo","LATITUDE":"34.465","LONGITUDE":"-110.090556"},
{"ID":"1644","STATE_CODE":"AZ","STATE_NAME":"Arizona","CITY":"Teec Nos Pos","COUNTY":"Apache","LATITUDE":"36.779694","LONGITUDE":"-109.359039"},
{"ID":"1645","STATE_CODE":"AZ","STATE_NAME":"Arizona","CITY":"Tempe","COUNTY":"Maricopa","LATITUDE":"33.4273","LONGITUDE":"-111.9307"},
{"ID":"1646","STATE_CODE":"AZ","STATE_NAME":"Arizona","CITY":"Temple Bar Marina","COUNTY":"Mohave","LATITUDE":"36.025556","LONGITUDE":"-114.318056"},
{"ID":"1647","STATE_CODE":"AZ","STATE_NAME":"Arizona","CITY":"Thatcher","COUNTY":"Graham","LATITUDE":"32.819902","LONGITUDE":"-109.730245"},
{"ID":"1648","STATE_CODE":"AZ","STATE_NAME":"Arizona","CITY":"Tolleson","COUNTY":"Maricopa","LATITUDE":"33.434686","LONGITUDE":"-112.277444"},
{"ID":"1649","STATE_CODE":"AZ","STATE_NAME":"Arizona","CITY":"Tombstone","COUNTY":"Cochise","LATITUDE":"31.721598","LONGITUDE":"-110.058449"},
{"ID":"1650","STATE_CODE":"AZ","STATE_NAME":"Arizona","CITY":"Tonalea","COUNTY":"Coconino","LATITUDE":"35.934555","LONGITUDE":"-110.882042"},
{"ID":"1651","STATE_CODE":"AZ","STATE_NAME":"Arizona","CITY":"Tonopah","COUNTY":"Maricopa","LATITUDE":"33.422797","LONGITUDE":"-112.952785"},
{"ID":"1652","STATE_CODE":"AZ","STATE_NAME":"Arizona","CITY":"Tonto Basin","COUNTY":"Gila","LATITUDE":"33.930278","LONGITUDE":"-111.308056"},
{"ID":"1653","STATE_CODE":"AZ","STATE_NAME":"Arizona","CITY":"Topawa","COUNTY":"Pima","LATITUDE":"31.813889","LONGITUDE":"-111.825"},
{"ID":"1654","STATE_CODE":"AZ","STATE_NAME":"Arizona","CITY":"Topock","COUNTY":"Mohave","LATITUDE":"34.778388","LONGITUDE":"-114.481666"},
{"ID":"1655","STATE_CODE":"AZ","STATE_NAME":"Arizona","CITY":"Tortilla Flat","COUNTY":"Maricopa","LATITUDE":"33.526389","LONGITUDE":"-111.389167"},
{"ID":"1656","STATE_CODE":"AZ","STATE_NAME":"Arizona","CITY":"Tsaile","COUNTY":"Apache","LATITUDE":"36.307075","LONGITUDE":"-109.217627"},
{"ID":"1657","STATE_CODE":"AZ","STATE_NAME":"Arizona","CITY":"Tuba City","COUNTY":"Coconino","LATITUDE":"36.103729","LONGITUDE":"-111.268566"},
{"ID":"1658","STATE_CODE":"AZ","STATE_NAME":"Arizona","CITY":"Tubac","COUNTY":"Santa Cruz","LATITUDE":"31.6125","LONGITUDE":"-111.045278"},
{"ID":"1659","STATE_CODE":"AZ","STATE_NAME":"Arizona","CITY":"Tucson","COUNTY":"Pima","LATITUDE":"32.213873","LONGITUDE":"-110.969445"},
{"ID":"1660","STATE_CODE":"AZ","STATE_NAME":"Arizona","CITY":"Tumacacori","COUNTY":"Santa Cruz","LATITUDE":"31.594194","LONGITUDE":"-111.039693"},
{"ID":"1661","STATE_CODE":"AZ","STATE_NAME":"Arizona","CITY":"Vail","COUNTY":"Pima","LATITUDE":"32.035926","LONGITUDE":"-110.88375"},
{"ID":"1662","STATE_CODE":"AZ","STATE_NAME":"Arizona","CITY":"Valentine","COUNTY":"Mohave","LATITUDE":"35.3717","LONGITUDE":"-113.8213"},
{"ID":"1663","STATE_CODE":"AZ","STATE_NAME":"Arizona","CITY":"Valley Farms","COUNTY":"Pinal","LATITUDE":"32.988333","LONGITUDE":"-111.446667"},
{"ID":"1664","STATE_CODE":"AZ","STATE_NAME":"Arizona","CITY":"Vernon","COUNTY":"Apache","LATITUDE":"34.2575","LONGITUDE":"-109.692222"},
{"ID":"1665","STATE_CODE":"AZ","STATE_NAME":"Arizona","CITY":"Waddell","COUNTY":"Maricopa","LATITUDE":"33.567285","LONGITUDE":"-112.43869"},
{"ID":"1666","STATE_CODE":"AZ","STATE_NAME":"Arizona","CITY":"Wellton","COUNTY":"Yuma","LATITUDE":"32.749251","LONGITUDE":"-114.176616"},
{"ID":"1667","STATE_CODE":"AZ","STATE_NAME":"Arizona","CITY":"Wenden","COUNTY":"La Paz","LATITUDE":"33.8225","LONGITUDE":"-113.540833"},
{"ID":"1668","STATE_CODE":"AZ","STATE_NAME":"Arizona","CITY":"White Mountain Lake","COUNTY":"Navajo","LATITUDE":"34.348333","LONGITUDE":"-109.996944"},
{"ID":"1669","STATE_CODE":"AZ","STATE_NAME":"Arizona","CITY":"Whiteriver","COUNTY":"Navajo","LATITUDE":"33.836944","LONGITUDE":"-109.963611"},
{"ID":"1670","STATE_CODE":"AZ","STATE_NAME":"Arizona","CITY":"Wickenburg","COUNTY":"Maricopa","LATITUDE":"33.968611","LONGITUDE":"-112.728889"},
{"ID":"1671","STATE_CODE":"AZ","STATE_NAME":"Arizona","CITY":"Wikieup","COUNTY":"Mohave","LATITUDE":"34.703333","LONGITUDE":"-113.610556"},
{"ID":"1672","STATE_CODE":"AZ","STATE_NAME":"Arizona","CITY":"Willcox","COUNTY":"Cochise","LATITUDE":"32.372977","LONGITUDE":"-109.863111"},
{"ID":"1673","STATE_CODE":"AZ","STATE_NAME":"Arizona","CITY":"Williams","COUNTY":"Coconino","LATITUDE":"35.249842","LONGITUDE":"-112.190623"},
{"ID":"1674","STATE_CODE":"AZ","STATE_NAME":"Arizona","CITY":"Willow Beach","COUNTY":"Mohave","LATITUDE":"35.8316","LONGITUDE":"-114.4441"},
{"ID":"1675","STATE_CODE":"AZ","STATE_NAME":"Arizona","CITY":"Window Rock","COUNTY":"Apache","LATITUDE":"35.680556","LONGITUDE":"-109.051944"},
{"ID":"1676","STATE_CODE":"AZ","STATE_NAME":"Arizona","CITY":"Winkelman","COUNTY":"Gila","LATITUDE":"33.00572","LONGITUDE":"-110.772682"},
{"ID":"1677","STATE_CODE":"AZ","STATE_NAME":"Arizona","CITY":"Winslow","COUNTY":"Navajo","LATITUDE":"35.16078","LONGITUDE":"-110.511382"},
{"ID":"1678","STATE_CODE":"AZ","STATE_NAME":"Arizona","CITY":"Wittmann","COUNTY":"Maricopa","LATITUDE":"33.726425","LONGITUDE":"-112.446578"},
{"ID":"1679","STATE_CODE":"AZ","STATE_NAME":"Arizona","CITY":"Woodruff","COUNTY":"Navajo","LATITUDE":"34.513333","LONGITUDE":"-110.077778"},
{"ID":"1680","STATE_CODE":"AZ","STATE_NAME":"Arizona","CITY":"Yarnell","COUNTY":"Yavapai","LATITUDE":"34.414076","LONGITUDE":"-112.62166"},
{"ID":"1681","STATE_CODE":"AZ","STATE_NAME":"Arizona","CITY":"Young","COUNTY":"Gila","LATITUDE":"34.101389","LONGITUDE":"-110.963056"},
{"ID":"1682","STATE_CODE":"AZ","STATE_NAME":"Arizona","CITY":"Youngtown","COUNTY":"Maricopa","LATITUDE":"33.590751","LONGITUDE":"-112.301305"},
{"ID":"1683","STATE_CODE":"AZ","STATE_NAME":"Arizona","CITY":"Yucca","COUNTY":"Mohave","LATITUDE":"34.872222","LONGITUDE":"-114.148611"},
{"ID":"1684","STATE_CODE":"AZ","STATE_NAME":"Arizona","CITY":"Yuma","COUNTY":"Yuma","LATITUDE":"32.701507","LONGITUDE":"-114.642362"}
]
